[{"iata":"AQG","lat":30.5821991,"lon":117.0500031,"cca2":"CN","region":"Asia Pacific","city":"Anqing, China"},{"iata":"XIY","lat":34.4471016,"lon":108.7519989,"cca2":"CN","region":"Asia Pacific","city":"Baoji, China"},{"iata":"CGD","lat":28.9188995,"lon":111.6399994,"cca2":"CN","region":"Asia Pacific","city":"Changde, China"},{"iata":"CSX","lat":31.9197006,"lon":119.7789993,"cca2":"CN","region":"Asia Pacific","city":"Changsha, China"},{"iata":"CZX","lat":31.9197006,"lon":119.7789993,"cca2":"CN","region":"Asia Pacific","city":"Changzhou, China"},{"iata":"CTU","lat":30.5785007,"lon":103.9469986,"cca2":"CN","region":"Asia Pacific","city":"Chengdu, China"},{"iata":"DLC","lat":38.9656982,"lon":121.5390015,"cca2":"CN","region":"Asia Pacific","city":"Dalian, China"},{"iata":"FUO","lat":23.0832996,"lon":113.0699997,"cca2":"CN","region":"Asia Pacific","city":"Foshan, China"},{"iata":"FOC","lat":23.3924007,"lon":113.2990036,"cca2":"CN","region":"Asia Pacific","city":"Fuzhou, China"},{"iata":"CAN","lat":23.3924007,"lon":113.2990036,"cca2":"CN","region":"Asia Pacific","city":"Guangzhou, China"},{"iata":"KWE","lat":26.5384998,"lon":106.8010025,"cca2":"CN","region":"Asia Pacific","city":"Guiyang, China"},{"iata":"HAK","lat":19.9349003,"lon":110.4589996,"cca2":"CN","region":"Asia Pacific","city":"Haikou, China"},{"iata":"SJW","lat":38.2807007,"lon":114.6969986,"cca2":"CN","region":"Asia Pacific","city":"Hengshui, China"},{"iata":"HET","lat":40.8513985,"lon":111.8239975,"cca2":"CN","region":"Asia Pacific","city":"Hohhot, China"},{"iata":"HFE","lat":31.7800007,"lon":117.2979965,"cca2":"CN","region":"Asia Pacific","city":"Huainan, China"},{"iata":"TNA","lat":36.8572006,"lon":117.2160034,"cca2":"CN","region":"Asia Pacific","city":"Jinan, China"},{"iata":"HGH","lat":30.2294998,"lon":120.4339981,"cca2":"CN","region":"Asia Pacific","city":"Jinhua, China"},{"iata":"PKX","lat":39.5123946,"lon":116.4095976,"cca2":"CN","region":"Asia Pacific","city":"Langfang, China"},{"iata":"LHW","lat":36.5152016,"lon":103.6200028,"cca2":"CN","region":"Asia Pacific","city":"Lanzhou, China"},{"iata":"LYA","lat":34.7411003,"lon":112.3880005,"cca2":"CN","region":"Asia Pacific","city":"Luoyang, China"},{"iata":"TAO","lat":36.2661018,"lon":120.3740005,"cca2":"CN","region":"Asia Pacific","city":"Qingdao, China"},{"iata":"BPE","lat":39.666389,"lon":119.058889,"cca2":"CN","region":"Asia Pacific","city":"Qinhuangdao, China"},{"iata":"JJN","lat":24.7964001,"lon":118.5899963,"cca2":"CN","region":"Asia Pacific","city":"Quanzhou, China"},{"iata":"JUZ","lat":28.9657993,"lon":118.8990021,"cca2":"CN","region":"Asia Pacific","city":"Quzhou, China"},{"iata":"SHA","lat":31.1979008,"lon":121.3359985,"cca2":"CN","region":"Asia Pacific","city":"Shanghai, China"},{"iata":"WDS","lat":32.591667,"lon":110.907778,"cca2":"CN","region":"Asia Pacific","city":"Shiyan, China"},{"iata":"NKG","lat":31.7420006,"lon":118.8619995,"cca2":"CN","region":"Asia Pacific","city":"Suqian, China"},{"iata":"HYN","lat":28.564919,"lon":121.4582653,"cca2":"CN","region":"Asia Pacific","city":"Taizhou, China"},{"iata":"TSN","lat":39.130406,"lon":117.3570113,"cca2":"CN","region":"Asia Pacific","city":"Tianjin, China"},{"iata":"WUX","lat":31.4986257,"lon":120.4330787,"cca2":"CN","region":"Asia Pacific","city":"Wuxi, China"},{"iata":"XNN","lat":36.5279227,"lon":102.0387004,"cca2":"CN","region":"Asia Pacific","city":"Xining, China"},{"iata":"KHN","lat":28.8574636,"lon":115.9084768,"cca2":"CN","region":"Asia Pacific","city":"Xinyu, China"},{"iata":"YIH","lat":30.549007,"lon":111.4798903,"cca2":"CN","region":"Asia Pacific","city":"Yichang, China"},{"iata":"CGO","lat":34.5253412,"lon":113.8439676,"cca2":"CN","region":"Asia Pacific","city":"Zhengzhou, China"},{"iata":"BNA","lat":36.1245003,"lon":-86.6781998,"cca2":"US","region":"North America","city":"Nashville, TN, United States"},{"iata":"CGQ","lat":43.9962006,"lon":125.6849976,"cca2":"CN","region":"Asia Pacific","city":"Changchun, China"},{"iata":"ZGN","lat":22.5167,"lon":113.367,"cca2":"CN","region":"Asia Pacific","city":"Zhongshan, China"},{"iata":"WHU","lat":31.3906002,"lon":118.4089966,"cca2":"CN","region":"Asia Pacific","city":"Wuhu, China"}]